City_ID,City,Lat,Lng,Max Temp,Humidity,Cloudiness,Wind Speed,Country,Date
0,edinburgh of the seven seas,-37.0676,-12.3116,10.41,58,90,9.93,SH,1696201036
1,klyuchi,52.2667,79.1667,5.45,90,0,2.57,RU,1696201037
2,enterprise,36.0252,-115.2419,23.16,31,75,1.54,US,1696201037
3,petropavlovsk-kamchatsky,53.0452,158.6483,3.33,100,100,4.0,RU,1696201037
4,adamstown,-25.066,-130.1015,20.4,82,11,11.34,PN,1696201037
5,isafjordur,66.0755,-23.124,5.77,93,100,11.17,IS,1696200849
6,ebaye,8.7748,167.7392,31.01,70,0,4.12,MH,1696201037
7,vaxjo,56.8777,14.8091,9.03,100,37,2.57,SE,1696201037
8,mantua,45.1667,10.7833,18.58,85,1,0.45,IT,1696201037
9,chonchi,-42.6128,-73.8092,7.56,98,100,0.64,CL,1696201037
10,waitangi,-43.9535,-176.5597,14.34,87,71,4.47,NZ,1696201038
11,qaqortoq,60.7167,-46.0333,2.43,83,100,1.98,GL,1696201038
12,grytviken,-54.2811,-36.5092,3.46,79,1,5.01,GS,1696200837
13,constantia,44.1833,28.65,16.5,51,79,8.41,RO,1696201038
14,taoudenni,22.6783,-3.9836,33.7,12,61,3.21,ML,1696201038
15,puerto natales,-51.7236,-72.4875,2.53,72,32,5.15,CL,1696201038
16,al ghayzah,16.2079,52.176,25.95,87,49,1.08,YE,1696201038
17,hermanus,-34.4187,19.2345,12.96,73,3,3.5,ZA,1696201038
18,tieling,42.2931,123.8414,11.62,73,0,1.98,CN,1696201038
19,port lincoln,-34.7333,135.8667,16.48,62,0,5.1,AU,1696201039
20,brisas de zicatela,15.8369,-97.0419,31.29,58,75,1.54,MX,1696201039
21,vernal,40.4555,-109.5287,12.84,71,100,4.12,US,1696201039
22,blackmans bay,-43.0167,147.3167,13.18,62,72,3.81,AU,1696201039
23,flin flon,54.7682,-101.865,5.91,93,100,3.6,CA,1696200785
24,badger,64.8,-147.5333,10.14,55,100,0.0,US,1696201039
25,kodiak,57.79,-152.4072,9.73,76,100,5.14,US,1696200846
26,invercargill,-46.4,168.35,13.9,67,63,4.02,NZ,1696201039
27,guerrero negro,27.9769,-114.0611,23.04,58,28,7.3,MX,1696200851
28,mil'kovo,55.6078,37.7956,10.55,78,100,2.73,RU,1696201039
29,yuzhno-kurilsk,44.0306,145.8556,14.1,91,22,3.36,RU,1696201040
30,kashgar,39.4547,75.9797,17.56,29,40,5.0,CN,1696201040
31,grand falls-windsor,48.9332,-55.6649,15.28,75,20,3.35,CA,1696201040
32,fort mcmurray,56.7268,-111.381,13.77,54,75,5.66,CA,1696201040
33,novodvinsk,64.4165,40.8122,9.32,95,66,2.92,RU,1696201040
34,anna regina,7.2644,-58.5077,28.39,76,99,4.54,GY,1696201040
35,bredasdorp,-34.5322,20.0403,10.24,88,1,1.33,ZA,1696201040
36,port-aux-francais,-49.35,70.2167,6.21,91,100,19.22,TF,1696201040
37,langzhong,31.5504,105.9938,17.97,95,100,1.53,CN,1696201041
38,rozhyshche,50.9154,25.2691,12.98,88,51,3.27,UA,1696201041
39,hamilton,39.1834,-84.5333,28.02,53,0,4.12,US,1696200386
40,nemuro,43.3236,145.575,15.08,83,27,3.52,JP,1696201041
41,olonkinbyen,70.9221,-8.7187,-0.04,85,100,6.37,SJ,1696201041
42,znamenskoye,57.1281,73.8282,5.0,97,15,2.42,RU,1696201041
43,saipan,15.1355,145.701,28.39,89,40,4.63,MP,1696201041
44,wucheng,29.6008,118.175,19.28,89,34,1.2,CN,1696201041
45,ilulissat,69.2167,-51.1,-8.07,79,7,2.66,GL,1696201041
46,al bardiyah,31.7561,25.0865,22.93,67,0,4.39,LY,1696201042
47,san patricio,28.017,-97.5169,30.1,63,78,6.6,US,1696201042
48,ushuaia,-54.8,-68.3,3.81,48,75,4.63,AR,1696200991
49,yellowknife,62.456,-114.3525,8.56,96,100,6.17,CA,1696201042
50,puerto ayora,-0.7393,-90.3518,29.98,93,96,2.24,EC,1696201042
51,kone,-21.0595,164.8658,24.28,53,51,4.79,NC,1696201042
52,ilha de mocambique,-15.0342,40.7358,24.35,83,2,4.45,MZ,1696200968
53,ulladulla,-35.35,150.4667,18.2,59,88,3.13,AU,1696201042
54,marsabit,2.3284,37.9899,21.43,49,23,8.47,KE,1696201043
55,papatowai,-46.5619,169.4708,13.52,57,28,7.74,NZ,1696200840
56,zuwarah,32.9312,12.082,24.04,65,0,3.96,LY,1696201043
57,albany,42.6001,-73.9662,21.36,82,3,1.19,US,1696201043
58,santa terezinha,-29.9002,-50.0904,13.18,73,1,3.26,BR,1696201043
59,kavaratti,10.5669,72.642,27.49,80,97,6.02,IN,1696201043
60,lillehammer,61.1146,10.4674,5.96,93,49,1.12,NO,1696201043
61,mhamid,29.82,-5.72,26.99,22,74,4.01,MA,1696201043
62,holualoa,19.6228,-155.9522,26.91,78,40,4.12,US,1696201044
63,morinville,53.8001,-113.652,14.91,60,0,6.17,CA,1696201044
64,elverum,60.8819,11.5623,6.14,93,45,1.39,NO,1696201044
65,kirensk,57.7853,108.1119,-1.1,86,64,3.13,RU,1696200854
66,togur,58.3631,82.8265,2.3,71,100,3.58,RU,1696201044
67,whitehorse,60.7161,-135.0538,9.43,71,75,7.2,CA,1696200852
68,sonegaon,20.65,78.6833,24.16,78,99,1.15,IN,1696201044
69,berdigestyakh,62.0989,126.6992,0.72,78,92,1.79,RU,1696201044
70,l'alcora,40.0667,-0.2,20.68,56,9,0.7,ES,1696201045
71,derazhnya,49.2692,27.4338,13.22,58,70,3.18,UA,1696200980
72,tazacorte,28.629,-17.9293,23.54,83,75,4.63,ES,1696201045
73,port isabel,26.0734,-97.2086,33.02,72,0,6.17,US,1696201045
74,thompson,55.7435,-97.8558,4.09,100,100,4.12,CA,1696201045
75,lindi,-10.0,39.7167,21.94,94,10,1.1,TZ,1696201045
76,okotoks,50.7289,-113.9828,12.84,74,86,1.34,CA,1696200581
77,hawaiian paradise park,19.5933,-154.9731,28.83,78,100,3.09,US,1696201045
78,west island,-12.1568,96.8225,24.99,78,75,8.75,CC,1696200863
79,kidal,18.4411,1.4078,32.22,29,19,1.72,ML,1696201046
80,georgetown,5.4112,100.3354,27.23,92,20,1.54,MY,1696201046
81,gaalkacyo,6.7697,47.4308,26.6,68,3,6.89,SO,1696201046
82,honggang,46.4667,124.8667,9.99,66,10,2.23,CN,1696201046
83,al jawf,29.5,38.75,24.78,23,12,2.15,SA,1696201046
84,east london,-33.0153,27.9116,14.97,68,19,5.77,ZA,1696200845
85,port alfred,-33.5906,26.891,13.43,86,3,1.34,ZA,1696200844
86,callaway,30.153,-85.5699,30.03,53,0,4.63,US,1696200899
87,jamestown,42.097,-79.2353,21.8,64,0,3.09,US,1696200776
88,dudinka,69.4058,86.1778,-14.07,100,94,1.79,RU,1696200838
89,hami,42.8,93.45,14.31,49,2,2.35,CN,1696201047
90,vadso,70.0744,29.7487,4.49,81,75,5.66,NO,1696200874
91,krasnoural'sk,58.3638,60.0407,9.07,80,100,4.04,RU,1696201047
92,enewetak,11.3474,162.3373,29.31,75,74,5.19,MH,1696201047
93,talnakh,69.4865,88.3972,-12.97,96,29,3.2,RU,1696201047
94,waingapu,-9.6567,120.2641,25.97,73,14,2.22,ID,1696201048
95,peniscola,40.3359,0.3613,22.6,73,10,0.15,ES,1696201048
96,saint-philippe,-21.3585,55.7679,21.77,74,3,2.04,RE,1696201048
97,midelt,32.6852,-4.7451,21.38,27,1,2.7,MA,1696201048
98,mamuju,-2.6748,118.8885,26.25,80,53,1.31,ID,1696201048
99,praia da vitoria,38.7333,-27.0667,20.14,77,20,3.15,PT,1696200876
100,lihue,21.9789,-159.3672,29.58,73,40,5.66,US,1696200759
101,iqaluit,63.7506,-68.5145,3.85,75,100,0.0,CA,1696201049
102,sidi yahia el gharb,34.3065,-6.3062,18.37,54,13,2.7,MA,1696201049
103,oelwein,42.6733,-91.9135,31.44,46,13,0.89,US,1696201049
104,yelizovo,53.1873,158.3805,4.08,100,100,4.0,RU,1696201049
105,utrik,11.2278,169.8474,28.5,79,63,6.1,MH,1696201049
106,margaret river,-33.95,115.0667,10.53,70,100,11.77,AU,1696201049
107,wailua homesteads,22.0669,-159.378,29.24,79,40,5.66,US,1696201049
108,puerto lopez,4.0845,-72.956,27.41,77,53,0.79,CO,1696201050
109,ribeira grande,38.5167,-28.7,19.32,81,100,1.79,PT,1696200840
110,udachny,66.4167,112.4,-0.86,92,100,9.8,RU,1696200849
111,emerald,-23.5333,148.1667,22.97,52,0,5.23,AU,1696201050
112,arkhangel'sk,64.5401,40.5433,9.51,95,77,3.17,RU,1696201050
113,huarmey,-10.0681,-78.1522,19.89,82,45,4.93,PE,1696200881
114,inhambane,-23.865,35.3833,21.73,60,93,8.98,MZ,1696201050
115,ghanzi,-21.5667,21.7833,22.3,14,0,4.13,BW,1696201050
116,opuwo,-18.0607,13.84,22.53,20,0,1.65,NA,1696200889
117,bilibino,68.0546,166.4372,-4.47,82,100,1.81,RU,1696200963
118,bethel,41.3712,-73.414,22.2,80,0,1.89,US,1696200881
119,ciudad lazaro cardenas,17.9583,-102.2,30.68,72,21,4.18,MX,1696201051
120,truth or consequences,33.1284,-107.2528,30.51,20,40,11.83,US,1696200858
121,remire-montjoly,4.9167,-52.2667,28.02,83,0,3.6,GF,1696201051
122,mount pleasant,32.7941,-79.8626,24.58,69,0,3.09,US,1696201051
123,kailua-kona,19.6406,-155.9956,28.98,78,40,4.12,US,1696201051
124,bubaque,11.2833,-15.8333,28.19,82,67,4.65,GW,1696201051
125,st. john's,47.5649,-52.7093,14.43,78,75,10.29,CA,1696200848
126,viedma,-40.8135,-62.9967,13.71,45,100,7.64,AR,1696201052
127,newman,37.3138,-121.0208,24.47,41,61,2.24,US,1696200914
128,east tamworth,-31.0894,150.9436,23.77,38,4,2.57,AU,1696201052
129,sungai raya,0.7,108.9,25.03,84,99,2.15,ID,1696201052
130,kirakira,-10.4544,161.9205,28.55,76,81,5.79,SB,1696201052
131,solnechnyy,50.7214,136.6319,7.24,96,100,4.62,RU,1696201052
132,portland,45.5234,-122.6762,22.67,51,20,4.12,US,1696200897
133,jalai nur,49.45,117.7,7.81,59,15,0.61,CN,1696201053
134,atafu village,-8.5421,-172.5159,28.48,70,61,1.41,TK,1696201053
135,anshun,26.25,105.9333,17.68,98,59,1.91,CN,1696201053
136,altamira,-3.2033,-52.2064,30.64,38,56,1.17,BR,1696201053
137,boca suno,-0.7167,-77.1333,31.77,74,79,1.19,EC,1696201053
138,khandyga,62.6667,135.6,4.13,96,100,1.77,RU,1696201053
139,arno,60.1167,18.6333,12.66,79,93,2.72,SE,1696201053
140,minas de marcona,-15.2119,-75.1103,15.11,82,25,5.98,PE,1696201054
141,wake village,33.4268,-94.1063,31.06,44,40,3.09,US,1696201054
142,tolanaro,-25.0319,46.9987,23.04,68,20,2.06,MG,1696201054
143,morehead city,34.7229,-76.726,25.02,76,20,3.6,US,1696200961
144,prince rupert,54.3161,-130.3201,11.83,86,100,6.17,CA,1696201054
145,punta arenas,-53.15,-70.9167,1.06,93,40,7.72,CL,1696201054
146,pisco,-13.7,-76.2167,21.03,73,0,8.23,PE,1696200844
147,ilhabela,-23.7781,-45.3581,20.97,94,100,2.67,BR,1696201054
148,valentin gomez farias,28.2167,-106.5833,28.22,20,25,1.94,MX,1696201054
149,stanley,54.868,-1.6985,12.1,95,20,1.54,GB,1696201054
150,new plymouth,-39.0667,174.0833,14.89,88,86,6.71,NZ,1696201055
151,fale old settlement,-9.3852,-171.2468,28.25,72,53,3.76,TK,1696201055
152,tiksi,71.6872,128.8694,-8.52,90,58,2.36,RU,1696201055
153,talakan,50.3167,130.3667,7.36,91,84,1.93,RU,1696201055
154,saldanha,-33.0117,17.9442,14.57,76,1,4.85,ZA,1696201055
155,awjilah,29.1081,21.2869,21.92,66,21,4.37,LY,1696201055
156,fuglafjordur,62.244,-6.814,11.26,88,79,8.83,FO,1696201055
157,selfoss,63.9331,-20.9971,8.36,72,100,5.28,IS,1696201056
158,maryport,54.7143,-3.4951,14.39,99,66,1.34,GB,1696201056
159,daru,-9.0763,143.2092,26.06,86,100,6.65,PG,1696201056
160,kapiri mposhi,-13.9652,28.6809,23.61,35,53,2.69,ZM,1696201056
161,vokhtoga,58.8147,41.0461,9.18,92,1,3.9,RU,1696201056
162,iskateley,67.6803,53.1512,10.57,96,100,3.58,RU,1696200893
163,al hasaheisa,14.7526,33.2984,32.6,36,83,3.97,SD,1696201056
164,vorgashor,67.5833,63.95,8.86,95,100,5.91,RU,1696201056
165,nova sintra,14.8667,-24.7167,24.11,79,74,4.89,CV,1696201057
166,carazinho,-28.2839,-52.7864,18.69,83,0,3.19,BR,1696201057
167,port elizabeth,-33.918,25.5701,16.16,72,0,5.66,ZA,1696201057
168,cromwell,41.5951,-72.6454,21.45,83,0,2.06,US,1696200941
169,aswan,24.0934,32.907,32.61,25,0,3.6,EG,1696201057
170,port mathurin,-19.6833,63.4167,23.07,77,4,6.54,MU,1696201057
171,tamanrasset,22.785,5.5228,22.95,27,0,1.54,DZ,1696201057
172,chegdomyn,51.1167,133.0167,5.74,94,100,1.34,RU,1696200867
173,quezon,7.7303,125.0989,23.96,90,100,1.0,PH,1696201057
174,ust'-ilimsk,58.0006,102.6619,-1.42,83,93,4.02,RU,1696201057
175,erdenet,49.0333,104.0833,3.58,90,100,1.94,MN,1696201058
176,fortaleza,-3.7227,-38.5247,28.07,65,0,4.12,BR,1696201058
177,aasiaat,68.7098,-52.8699,-6.78,79,10,3.49,GL,1696201058
178,narasannapeta,18.4167,84.05,26.17,91,100,3.13,IN,1696201058
179,carnarvon,-24.8667,113.6333,20.07,64,88,7.03,AU,1696201058
180,lensk,60.7253,114.9278,0.12,81,100,5.31,RU,1696201058
181,lebu,-37.6167,-73.65,9.63,80,100,2.92,CL,1696201058
182,puerto baquerizo moreno,-0.9,-89.6,25.55,73,75,6.17,EC,1696201058
183,college,64.8569,-147.8028,10.18,55,100,0.0,US,1696200856
184,whistler,50.1164,-122.9695,16.57,36,100,0.0,CA,1696200918
185,namibe,-15.1961,12.1522,19.29,78,0,2.31,AO,1696201059
186,decorah,43.3033,-91.7857,31.51,35,0,4.63,US,1696201059
187,baiyin,36.5583,104.2081,14.01,72,100,4.13,CN,1696201059
188,elliot lake,46.3834,-82.6331,17.95,82,100,1.38,CA,1696201059
189,koh kong,11.6175,102.9806,26.37,87,93,3.67,KH,1696201059
190,koesan,36.8108,127.7947,9.55,74,54,0.37,KR,1696201059
191,uturoa,-16.7333,-151.4333,25.79,82,23,7.66,PF,1696200843
192,longyearbyen,78.2186,15.6401,-3.09,59,75,9.26,SJ,1696201059
193,brak,27.5496,14.2714,26.11,37,47,7.87,LY,1696201060
194,crane,31.3974,-102.3501,31.02,35,8,9.45,US,1696201060
195,chernogorsk,53.8236,91.2842,2.76,93,75,0.0,RU,1696201060
196,jinchang,38.4953,102.1739,13.23,42,100,0.96,CN,1696201060
197,mount gambier,-37.8333,140.7667,13.46,56,0,4.27,AU,1696201060
198,yamada,39.4667,141.95,18.43,59,0,1.78,JP,1696201060
199,kharkhorin,47.1975,102.8238,6.02,47,99,2.42,MN,1696201060
200,tual,-5.6667,132.75,26.45,87,89,3.69,ID,1696201060
201,chibuto,-24.6867,33.5306,19.54,59,55,5.45,MZ,1696201061
202,keflavik,64.0049,-22.5624,8.95,87,0,2.57,IS,1696201061
203,swakopmund,-22.6833,14.5333,12.47,90,22,2.8,NA,1696200860
204,korla,41.7597,86.1469,16.43,36,0,4.02,CN,1696201061
205,amurzet,47.6967,131.0981,8.08,76,76,4.04,RU,1696201061
206,fortuna,40.5982,-124.1573,20.75,66,0,5.66,US,1696201061
207,saudarkrokur,65.7461,-19.6394,5.81,90,100,2.63,IS,1696201061
208,tanjung pandan,-2.75,107.65,24.32,88,95,3.22,ID,1696201061
209,minot,48.2325,-101.2963,21.12,78,100,4.12,US,1696201061
210,temperance,41.7792,-83.5688,25.1,68,0,0.0,US,1696201061
211,fort st. john,56.2499,-120.8529,12.94,47,75,6.17,CA,1696200823
212,sao jose da coroa grande,-8.8978,-35.1478,23.67,74,3,3.14,BR,1696201062
213,jalqani,12.4486,34.2186,24.23,79,5,3.27,SD,1696201062
214,lerwick,60.1545,-1.1494,12.0,87,37,6.75,GB,1696201062
215,tralee,52.2704,-9.7026,10.9,94,100,2.57,IE,1696200853
216,berbera,10.4396,45.0143,29.24,73,0,3.45,SO,1696201062
217,argo,37.6333,22.7333,19.32,55,2,1.82,GR,1696201062
218,nantucket,41.2835,-70.0995,16.08,85,100,6.69,US,1696201062
219,honcho,35.6931,139.9833,23.9,47,98,3.75,JP,1696201062
220,lazaro cardenas,17.9583,-102.2,30.68,72,21,4.18,MX,1696200872
221,amga,60.8953,131.9608,4.43,96,97,0.89,RU,1696201063
222,tucurui,-3.7661,-49.6725,32.21,43,87,0.75,BR,1696200847
223,port victoria,0.0939,33.9756,21.42,77,79,3.89,KE,1696201063
224,airway heights,47.6446,-117.5933,18.92,39,20,3.09,US,1696201063
225,upata,8.0086,-62.3989,28.28,60,100,1.36,VE,1696201063
226,padang,-0.9492,100.3543,26.03,91,100,2.3,ID,1696201063
227,marshall,34.3834,-86.3333,29.61,57,40,0.0,US,1696201063
228,skikda,36.8762,6.9092,21.83,83,0,1.34,DZ,1696201063
229,vorkuta,67.5,64.0,9.15,94,100,5.78,RU,1696201063
230,anadyr,64.75,177.4833,1.28,64,0,5.0,RU,1696201064
231,port douglas,-16.4833,145.4667,23.88,74,40,3.05,AU,1696201064
232,rongelap,11.1635,166.8941,29.09,74,55,6.88,MH,1696200881
233,tchintabaraden,15.8969,5.7985,30.1,44,8,8.12,NE,1696201064
234,saraykent,39.6936,35.5111,13.35,88,100,0.85,TR,1696201064
235,dunbar,38.3606,-81.7374,24.05,75,0,1.84,US,1696200901
236,ust-nera,64.5667,143.2,-2.1,62,62,3.13,RU,1696201064
237,pocao de pedras,-4.6667,-44.85,31.84,38,58,3.41,BR,1696201064
238,susuman,62.7833,148.1667,-2.79,92,16,1.34,RU,1696201064
239,lubango,-14.9172,13.4925,17.92,55,3,1.54,AO,1696201064
240,el granada,37.5027,-122.4694,26.07,61,40,6.17,US,1696201065
241,kingston,17.997,-76.7936,30.53,83,75,3.09,JM,1696200581
242,fauske,67.2588,15.3918,8.02,84,100,2.74,NO,1696201065
243,sitangkai,4.6628,119.3928,28.48,79,100,7.94,PH,1696201065
244,manismata,-2.4667,111.0333,21.99,93,96,0.98,ID,1696201065
245,mar del plata,-38.0023,-57.5575,10.61,90,20,4.63,AR,1696201065
246,motygino,58.1831,94.7592,0.44,72,100,2.68,RU,1696201065
247,vernon,50.2581,-119.2691,19.31,54,30,1.79,CA,1696201065
248,mugia,43.1041,-9.2179,18.28,75,67,2.48,ES,1696201065
249,arauca,7.0847,-70.7591,31.98,62,0,1.54,CO,1696201066
250,tiquipaya,-17.3382,-66.2189,24.4,31,75,3.6,BO,1696201066
251,santa maria,-29.6842,-53.8069,14.61,72,0,1.54,BR,1696200998
252,cedeira,43.6797,-8.0209,17.99,77,77,1.6,ES,1696201066
253,sinah,36.809,43.0389,21.3,55,100,1.64,IQ,1696201066
254,surovikino,48.6078,42.8486,13.47,49,92,3.12,RU,1696201066
255,sittwe,20.15,92.9,25.95,90,92,5.13,MM,1696201066
256,alice springs,-23.7,133.8833,29.75,19,62,7.2,AU,1696201016
257,escanaba,45.7453,-87.0646,22.51,94,0,3.6,US,1696200862
258,jilib,0.4883,42.7854,24.23,83,10,3.81,SO,1696201067
259,mariehamn,60.0973,19.9348,12.68,100,73,0.0,AX,1696201067
260,pasuquin,18.3328,120.6177,26.97,94,100,0.51,PH,1696201067
261,papao,-17.75,-149.55,27.82,84,8,7.55,PF,1696201067
262,tukrah,32.5341,20.5791,22.82,71,6,3.61,LY,1696201067
263,pokhara,28.2333,83.9833,20.92,79,81,1.02,NP,1696201067
264,kakching,24.4833,93.9833,20.22,98,79,1.17,IN,1696201067
265,sechura,-5.5569,-80.8222,23.45,67,45,7.43,PE,1696201067
266,nova vicosa,-17.8919,-39.3719,22.95,73,36,5.5,BR,1696200836
267,karratha,-20.7377,116.8463,22.68,41,1,8.46,AU,1696200870
268,marsa alam,25.0757,34.8918,29.64,51,25,7.19,EG,1696200851
269,motilla del palancar,39.5709,-1.9068,20.34,41,5,2.12,ES,1696201068
270,mulayjah,27.271,48.4242,29.72,20,0,3.79,SA,1696201068
271,angaur state,6.906,134.13,28.22,78,40,2.75,PW,1696201068
272,ilebo,-4.3167,20.5833,21.2,90,75,0.31,CD,1696201068
273,smithers,54.7804,-127.1743,8.18,93,100,1.03,CA,1696201068
274,sinabang,2.4803,96.3801,26.38,84,100,5.18,ID,1696201068
275,mulanje,-16.0316,35.5,24.93,46,25,3.9,MW,1696201068
276,bamboo flat,11.7,92.7167,26.05,94,75,1.03,IN,1696201069
277,rampur,28.8167,79.0333,24.57,83,8,1.9,IN,1696201069
278,starodub,52.5844,32.7633,8.41,90,81,2.87,RU,1696201069
279,jefferson city,38.5767,-92.1735,32.95,25,0,3.13,US,1696200913
280,siocon,7.7061,122.1353,26.71,82,100,2.17,PH,1696201069
281,sisimiut,66.9395,-53.6735,0.68,72,99,2.26,GL,1696201069
282,neiafu,-18.65,-173.9833,25.38,61,40,5.14,TO,1696201069
283,cacequi,-29.8836,-54.825,12.65,76,0,3.65,BR,1696201069
284,severobaykal'sk,55.65,109.3167,1.39,73,57,3.57,RU,1696200842
285,malango,-2.9627,119.9001,20.67,94,94,0.1,ID,1696201070
286,gornozavodsk,58.3758,58.3211,9.66,80,98,4.08,RU,1696201070
287,kostyantynivka,48.5277,37.7069,17.22,44,34,1.76,UA,1696201070
288,siauliai,55.9333,23.3167,10.01,93,4,4.12,LT,1696201070
289,turan,16.0678,108.2208,24.99,100,20,0.0,VN,1696201070
290,pampa,35.5362,-100.9599,28.08,43,91,10.02,US,1696201070
291,kayangel,8.0823,134.7173,28.23,77,21,1.72,PW,1696201070
292,tinajo,29.0788,-13.7081,25.49,69,0,2.06,ES,1696201070
293,pimentel,-6.8367,-79.9342,24.16,64,20,7.72,PE,1696201070
294,igrim,63.1906,64.4162,10.57,83,96,4.47,RU,1696201071
295,shahrak,34.1074,64.3052,3.85,50,0,1.14,AF,1696201071
296,ujkigyos,46.5833,21.0333,10.08,55,49,2.17,HU,1696201071
297,mishelevka,52.8575,103.1719,1.16,85,82,1.41,RU,1696201071
298,vengerovo,55.6848,76.7471,2.31,64,20,2.94,RU,1696201071
299,kralendijk,12.15,-68.2667,30.99,70,0,4.63,BQ,1696201071
300,fayroz koh,34.5195,65.2509,4.24,49,0,0.69,AF,1696201071
301,port-vila,-17.7338,168.3219,25.78,61,20,6.69,VU,1696201071
302,kapuskasing,49.4169,-82.4331,19.05,72,75,4.63,CA,1696201072
303,dunedin,-45.8742,170.5036,18.37,34,13,9.37,NZ,1696201072
304,watford city,47.8022,-103.2832,18.92,100,100,3.09,US,1696201072
305,gizo,-8.103,156.8419,27.82,80,76,7.65,SB,1696200844
306,taksimo,56.3444,114.8794,5.95,73,100,0.45,RU,1696201072
307,toyooka,35.5333,134.8333,19.94,62,87,2.92,JP,1696201072
308,tobruk,32.0836,23.9764,23.49,64,0,4.61,LY,1696201072
309,sogndal,61.2283,7.1003,9.21,93,100,0.51,NO,1696201072
310,trashi yangtse,27.6116,91.498,17.74,88,83,1.13,BT,1696201072
311,tanout,14.9709,8.8879,26.48,49,31,2.28,NE,1696200876
312,princeville,45.7668,-61.2985,14.32,91,0,0.0,CA,1696201073
313,okhotsk,59.3833,143.3,6.18,82,95,1.2,RU,1696201073
314,kabwe,-14.4469,28.4464,23.85,37,10,2.75,ZM,1696201073
315,san antonio de pale,-1.4014,5.6325,25.11,83,76,5.05,GQ,1696200840
316,bandarbeyla,9.4942,50.8122,25.57,88,22,5.77,SO,1696200835
317,flying fish cove,-10.4217,105.6791,23.82,83,75,5.66,CX,1696201073
318,mikhaylovka,50.06,43.2379,12.61,48,96,3.03,RU,1696201073
319,chisec,15.8167,-90.2833,29.13,81,83,0.83,GT,1696201073
320,essaouira,31.5125,-9.77,23.72,60,65,1.54,MA,1696201073
321,bir el ater,34.7449,8.0602,18.64,56,0,0.95,DZ,1696201074
322,scottsboro,34.6723,-86.0341,29.49,45,46,2.02,US,1696201074
323,reggane,26.7158,0.1714,32.07,24,0,9.98,DZ,1696201074
324,touros,-5.1989,-35.4608,24.69,77,50,5.67,BR,1696201074
325,avarua,-21.2078,-159.775,24.03,83,75,4.63,CK,1696201074
326,tura,25.5198,90.2201,23.08,97,97,1.89,IN,1696201074
327,erenhot,43.6475,111.9767,13.92,31,100,2.87,CN,1696201074
328,cabo san lucas,22.8909,-109.9124,35.34,62,2,6.71,MX,1696200941
329,mount pearl,47.5166,-52.7813,13.97,78,75,10.29,CA,1696201075
330,verkhnevilyuysk,63.4453,120.3167,3.86,86,100,1.79,RU,1696201075
331,boiling springs,35.0465,-81.9818,26.08,51,0,2.06,US,1696201021
332,acarau,-2.8856,-40.12,25.65,79,20,7.71,BR,1696201075
333,cuatro cienegas de carranza,26.9833,-102.0833,31.93,38,11,7.32,MX,1696201075
334,troitsko-pechorsk,62.7084,56.1964,11.5,83,100,5.36,RU,1696201075
335,dongning,44.0622,131.1207,10.45,71,10,2.53,CN,1696201075
336,rabo de peixe,37.8,-25.5833,19.73,99,20,6.17,PT,1696201075
337,almeirim,-1.5233,-52.5817,30.07,47,80,0.78,BR,1696201076
338,sitka,57.0531,-135.33,12.94,82,100,4.12,US,1696201076
339,axim,4.8699,-2.2405,24.82,92,52,3.12,GH,1696201076
340,egilsstadir,65.2653,-14.3948,5.95,93,100,4.12,IS,1696201076
341,haiku-pauwela,20.9219,-156.3051,30.01,58,20,11.32,US,1696201076
342,saint-pierre,-21.3393,55.4781,21.82,64,0,2.57,RE,1696201076
343,okondja,-0.6549,13.6753,22.58,97,72,0.72,GA,1696201076
344,san martin de los andes,-40.1604,-71.3486,9.25,59,94,3.58,AR,1696201077
345,ludvika,60.1496,15.1878,7.89,94,81,1.76,SE,1696201077
346,mizan teferi,6.9833,35.5833,16.29,94,100,1.38,ET,1696201077
347,karachi,24.9056,67.0822,21.9,73,0,0.0,PK,1696201077
348,luena,-11.7833,19.9167,20.1,77,20,1.54,AO,1696201077
349,cambara,-23.0464,-50.0736,24.22,72,43,2.24,BR,1696201077
350,kavieng,-2.5744,150.7967,28.62,74,51,1.84,PG,1696201077
351,undurkhaan,47.3194,110.6556,8.92,40,100,0.79,MN,1696201077
352,bushehr,28.9684,50.8385,31.05,42,0,4.12,IR,1696201078
353,cill airne,52.05,-9.5167,10.55,96,100,2.08,IE,1696201078
354,usinsk,65.9939,57.5281,11.71,91,100,8.49,RU,1696201078
355,codrington,-38.2667,141.9667,14.29,58,1,4.88,AU,1696201078
356,datong,40.0936,113.2914,12.13,39,100,1.08,CN,1696201072
357,sabang,5.8933,95.3214,27.66,79,5,6.46,ID,1696201078
358,weno,7.4515,151.8468,28.97,89,100,2.06,FM,1696201078
359,puerto armuelles,8.2833,-82.8667,27.99,85,98,2.24,PA,1696201078
360,vallenar,-28.5708,-70.7581,14.77,53,0,2.32,CL,1696201078
361,buala,-8.145,159.5921,28.76,75,92,5.6,SB,1696201079
362,myeik,12.4333,98.6,25.48,89,97,1.45,MM,1696201079
363,hacienda huancane,-15.8222,-70.8856,7.54,49,83,7.85,PE,1696201079
364,aur,8.1499,171.1687,28.67,77,36,5.38,MH,1696201079
365,dampit,-8.2116,112.7493,20.13,74,27,1.43,ID,1696201079
366,eno,62.8051,30.1542,7.28,88,100,2.45,FI,1696201079
367,dryden,49.7833,-92.7503,18.16,94,100,4.63,CA,1696201079
368,tabou,4.423,-7.3528,24.79,89,71,4.28,CI,1696201079
369,qamdo,31.1667,97.2333,3.04,75,38,0.93,CN,1696201079
370,sinop,41.7711,34.8709,14.52,91,93,2.43,TR,1696201080
371,vilyuchinsk,52.9306,158.4028,4.15,91,99,2.53,RU,1696201080
372,basoko,1.2391,23.616,23.02,89,35,1.06,CD,1696201080
373,margate,51.3813,1.3862,16.28,90,96,0.45,GB,1696201080
374,conceicao do araguaia,-8.2578,-49.2647,34.6,26,71,3.49,BR,1696201080
375,figuig (centre),32.1089,-1.2286,23.36,29,0,1.36,MA,1696201080
376,coquimbo,-29.9533,-71.3436,13.85,82,100,4.12,CL,1696201080
377,kudahuvadhoo,2.6708,72.8944,28.01,74,89,5.32,MV,1696200858
378,lompoc,34.6391,-120.4579,21.55,65,0,6.26,US,1696201080
379,menongue,-14.6585,17.691,18.4,67,63,2.12,AO,1696201081
380,yulinshi,38.2906,109.7494,12.62,76,100,3.4,CN,1696200838
381,suomussalmi,64.8869,28.9078,4.85,96,67,1.78,FI,1696201081
382,kotlas,61.2611,46.6556,10.59,92,50,4.02,RU,1696201081
383,tazovsky,67.4667,78.7,0.19,94,100,7.33,RU,1696201081
384,al kharijah,25.4514,30.5464,26.92,30,46,5.71,EG,1696201081
385,omdurman,15.6445,32.4777,35.83,24,33,4.76,SD,1696201081
386,sidi ifni,29.3797,-10.173,28.2,35,100,3.47,MA,1696201081
387,kaa-khem,51.6833,94.7333,5.78,77,81,1.95,RU,1696201082
388,la passe,45.5549,-0.8967,19.13,61,54,2.92,FR,1696201082
389,bay harbor,30.1471,-85.6146,28.97,55,0,4.63,US,1696201082
390,boonville,38.9736,-92.7432,32.44,32,0,3.09,US,1696201078
391,callao,-12.0667,-77.15,20.16,73,20,6.17,PE,1696201082
392,paracuru,-3.41,-39.0306,25.55,79,15,6.07,BR,1696201082
393,guijuelo,40.5576,-5.6707,22.03,35,32,1.91,ES,1696201082
394,siwa oasis,29.2041,25.5195,24.4,51,100,3.44,EG,1696201083
395,svitavy,49.7559,16.4683,14.45,65,75,1.07,CZ,1696201083
396,hilo,19.7297,-155.09,28.95,72,100,3.09,US,1696200837
397,wotho,10.1657,166.0102,28.85,75,15,6.72,MH,1696201083
398,drayton valley,53.2168,-114.9854,13.38,49,77,2.99,CA,1696200840
399,mount isa,-20.7333,139.5,26.87,26,1,4.12,AU,1696201083
400,chos malal,-37.3781,-70.2709,18.02,24,100,5.21,AR,1696201083
401,rye,40.9807,-73.6837,24.54,75,0,3.6,US,1696201083
402,haifa,32.8156,34.9892,25.67,64,96,0.45,IL,1696200924
403,kanigiri,15.4,79.5167,26.32,70,100,7.33,IN,1696201084
404,thunder bay,48.4001,-89.3168,16.99,100,100,6.69,CA,1696200852
405,guiuan,11.0333,125.7247,28.93,76,100,6.25,PH,1696201084
406,tuy hoa,13.0833,109.3,24.67,92,90,2.1,VN,1696200875
407,gloucester,51.8657,-2.2431,17.98,91,100,0.45,GB,1696201084
408,arteche,12.2645,125.4048,27.83,79,91,4.73,PH,1696201084
409,orchard homes,46.8633,-114.0484,12.55,76,100,4.63,US,1696201084
410,talavera de la reina,39.9635,-4.8308,23.29,27,3,2.55,ES,1696201084
411,tateyama,34.9833,139.8667,23.94,71,89,6.29,JP,1696201085
412,lidkoping,58.5052,13.1577,12.01,94,74,3.92,SE,1696201085
413,katsuren-haebaru,26.3369,127.8719,28.21,43,0,5.66,JP,1696201085
414,lorengau,-2.0226,147.2712,28.88,70,37,1.27,PG,1696201085
415,harstad,68.799,16.5293,5.45,97,91,0.89,NO,1696201085
416,baglung,28.2719,83.5898,20.32,83,87,0.76,NP,1696201085
417,balykshi,47.0667,51.8667,8.0,66,0,2.0,KZ,1696201085
418,yarmouth,41.7057,-70.2286,17.26,90,100,7.15,US,1696201085
419,le vauclin,14.5452,-60.8388,30.03,79,75,5.14,MQ,1696201085
420,sisophon,13.5859,102.9737,24.68,93,99,2.19,KH,1696201086
421,toliara,-23.35,43.6667,23.13,85,0,2.65,MG,1696201086
422,cupar,56.3188,-3.012,12.53,84,79,2.6,GB,1696201086
423,kerikeri,-35.2268,173.9474,19.95,74,10,2.24,NZ,1696201086
424,port saint john's,-31.6229,29.5448,16.83,64,100,3.16,ZA,1696201086
425,balkashino,52.5167,68.7667,7.12,90,7,3.09,KZ,1696201086
426,hadibu,12.65,54.0333,26.26,83,20,3.94,YE,1696201086
427,turkmenabat,39.0733,63.5786,15.39,35,10,2.7,TM,1696201087
428,mglin,53.0591,32.8475,8.14,92,74,2.39,RU,1696201087
429,byarozawka,53.7214,25.4993,9.27,94,40,2.87,BY,1696201087
430,covington,39.0837,-84.5086,28.29,55,0,4.12,US,1696200932
431,ancud,-41.8697,-73.8203,6.46,93,100,2.52,CL,1696201087
432,sirte,31.2089,16.5887,23.83,63,0,3.6,LY,1696201087
433,lembeni,-3.7833,37.6167,19.34,78,3,1.46,TZ,1696201087
434,puerto santa,-8.9906,-78.6456,18.97,86,19,5.83,PE,1696201087
435,freetown,8.484,-13.2299,25.84,89,75,2.57,SL,1696200885
436,shevchenko,48.5,35.0,15.97,73,73,4.57,UA,1696201088
437,sambava,-14.2667,50.1667,21.55,94,31,2.25,MG,1696201088
438,hounde,11.5,-3.5167,26.98,69,85,2.22,BF,1696201088
439,altay,47.8667,88.1167,6.37,54,4,3.02,CN,1696201032
440,ayancik,41.9447,34.5861,19.73,82,85,5.98,TR,1696201088
441,fisterra,42.9049,-9.2629,18.19,76,83,4.05,ES,1696201088
442,necocli,8.4234,-76.786,26.57,91,97,2.09,CO,1696201088
443,koryazhma,61.3143,47.1691,10.51,88,40,5.51,RU,1696201088
444,kharabali,47.4196,47.2568,13.54,55,16,2.79,RU,1696201089
445,xiazhuang,34.9161,118.6389,17.26,62,100,0.45,CN,1696201089
446,wilhelmshaven,53.5167,8.1333,17.12,94,99,3.24,DE,1696201089
447,tofol,5.3248,163.0078,30.88,74,75,2.57,FM,1696201089
448,howrah,22.5892,88.3103,27.0,94,75,1.54,IN,1696201089
449,yambio,4.5721,28.3955,21.13,92,77,1.87,SS,1696201089
450,sona,45.4388,10.8255,18.66,79,0,2.06,IT,1696201089
451,whitby,54.4877,-0.615,14.65,87,79,0.89,GB,1696200592
452,byron bay,-28.65,153.6167,23.83,53,0,5.89,AU,1696200837
453,colonia,50.9333,6.95,19.38,80,0,1.54,DE,1696200873
454,idri,27.5,13.2667,26.43,38,81,6.31,LY,1696201090
455,alofi,-19.0595,-169.9187,25.94,57,93,8.75,NU,1696201090
456,as sulayyil,20.4607,45.5779,26.14,20,0,2.95,SA,1696201090
457,canutama,-6.5339,-64.3831,31.38,42,84,0.62,BR,1696201090
458,formosa,-26.1775,-58.1781,23.99,52,0,3.09,AR,1696201090
459,baoqing,46.3317,132.2111,9.19,74,16,4.13,CN,1696201090
460,boende,-0.2167,20.8667,23.81,83,13,1.03,CD,1696201090
461,bakau,13.4781,-16.6819,27.08,89,40,0.0,GM,1696201090
462,afaahiti,-17.75,-149.2833,26.93,88,39,7.34,PF,1696201091
463,miri,4.4148,114.0089,23.08,94,40,1.03,MY,1696201091
464,burao,9.5221,45.5336,25.95,32,7,3.51,SO,1696201091
465,lovington,32.944,-103.3485,28.43,47,14,8.85,US,1696200988
466,pinamalayan,13.0,121.4167,26.31,86,100,1.19,PH,1696201091
467,miles city,46.4083,-105.8406,11.54,93,100,6.17,US,1696201091
468,tsiombe,-25.3,45.4833,20.7,90,0,2.07,MG,1696201091
469,yung shue wan,22.2333,114.1167,28.75,83,47,9.63,HK,1696201002
470,galliano,29.4422,-90.2992,29.44,61,40,3.09,US,1696201091
471,pedernales,18.0384,-71.744,29.23,79,76,1.93,DO,1696201092
472,chernyshevskiy,63.0128,112.4714,-2.27,84,77,4.94,RU,1696201092
473,sao joao da barra,-21.6403,-41.0511,22.05,98,100,3.67,BR,1696201092
474,lakatoro,-16.0999,167.4164,25.6,72,99,8.74,VU,1696201092
475,gewane,10.1664,40.6453,30.35,32,17,1.26,ET,1696201092
476,hailun,47.45,126.9333,7.99,77,41,1.89,CN,1696201092
477,pangody,65.85,74.4859,3.89,100,100,4.26,RU,1696201093
478,zouerate,22.7187,-12.4521,31.42,14,96,3.83,MR,1696201093
479,mejit,10.2753,170.8646,28.2,78,78,5.3,MH,1696200894
480,copala,16.65,-98.9833,29.34,78,60,2.98,MX,1696201093
481,machico,32.7,-16.7667,23.17,83,20,1.03,PT,1696201093
482,mbekenyera,-10.0,38.9833,20.16,92,5,1.37,TZ,1696201093
483,galeras,9.161,-75.0481,27.48,87,98,5.31,CO,1696201093
484,al abyar,32.19,20.5965,19.98,80,2,2.98,LY,1696201093
485,porto velho,-8.7619,-63.9039,28.03,69,20,3.09,BR,1696201093
486,port macquarie,-31.4333,152.9167,24.38,62,59,4.9,AU,1696200956
487,coracao de jesus,-16.6853,-44.365,27.43,47,79,2.07,BR,1696201094
488,geraldton,-28.7667,114.6,17.23,77,100,7.72,AU,1696201094
489,sumberpucung,-8.1586,112.4829,20.45,84,18,1.08,ID,1696201094
490,suva,-18.1416,178.4415,23.71,83,75,5.66,FJ,1696200981
491,gorshechnoye,51.5244,38.0365,13.02,86,89,3.19,RU,1696201094
492,ketchikan,55.3422,-131.6461,10.99,93,100,6.17,US,1696201052
493,hailar,49.2,119.7,6.31,63,6,1.94,CN,1696201094
494,machagai,-26.9261,-60.0496,20.23,41,0,3.33,AR,1696201095
495,lasem,-6.6922,111.4527,24.5,72,5,2.62,ID,1696201095
496,labrador city,52.9463,-66.9114,9.95,62,20,1.54,CA,1696200861
497,nizhneangarsk,55.7833,109.55,1.11,77,62,2.24,RU,1696201095
498,carolina,18.3808,-65.9574,29.94,90,75,4.12,PR,1696201095
499,kisanga,-7.4362,37.7034,22.01,70,2,1.24,TZ,1696201095
500,nouadhibou,20.931,-17.0347,28.99,37,70,7.72,MR,1696201095
501,ilheus,-14.7889,-39.0494,25.9,73,100,4.12,BR,1696201095
502,oranjemund,-28.55,16.4333,14.81,79,0,1.99,NA,1696201096
503,sur,22.5667,59.5289,30.25,47,0,2.54,OM,1696201096
504,choyr,46.3611,108.3611,9.14,31,95,2.6,MN,1696201096
505,kievka,50.2619,71.5514,11.53,60,100,5.74,KZ,1696201096
506,trairi,-3.2778,-39.2689,25.6,77,16,5.03,BR,1696200888
507,saint-joseph,-21.3667,55.6167,21.21,73,2,1.51,RE,1696201096
508,yeppoon,-23.1333,150.7333,23.88,57,42,4.39,AU,1696201096
509,inongo,-1.95,18.2667,21.73,96,57,0.16,CD,1696201096
510,balqash,46.8481,74.995,13.93,58,100,8.89,KZ,1696201096
511,kencong,-8.2833,113.3667,22.71,86,15,1.26,ID,1696201097
512,port shepstone,-30.7414,30.455,17.09,61,100,1.42,ZA,1696200894
513,greenville,35.6127,-77.3663,22.86,79,0,0.45,US,1696200886
514,yemetsk,63.4721,41.7941,9.89,95,100,3.14,RU,1696201097
515,gadzhiyevo,69.2551,33.3362,4.89,83,99,8.35,RU,1696201097
516,nguruka,-5.1092,31.0419,23.5,47,17,1.85,TZ,1696201097
517,polokwane,-23.9045,29.4688,13.47,82,12,5.14,ZA,1696201097
518,ulricehamn,57.7916,13.4142,13.01,95,69,2.99,SE,1696201097
519,tsumeb,-19.2333,17.7167,26.32,13,0,3.72,NA,1696201098
520,naze,28.3667,129.4833,25.51,80,68,4.96,JP,1696201098
521,uri,34.0833,74.0333,15.27,67,19,1.76,IN,1696201098
522,la'ie,21.6477,-157.9253,30.98,71,10,4.02,US,1696201098
523,tapiramuta,-11.8472,-40.7914,19.83,76,4,1.55,BR,1696201098
524,kourou,5.1552,-52.6478,28.03,80,79,5.69,GF,1696201098
525,oyem,1.5995,11.5793,20.19,99,94,1.09,GA,1696201098
526,panajachel,14.7333,-91.15,23.28,93,83,0.82,GT,1696201098
527,sinan,34.8262,126.1086,14.06,52,100,6.06,KR,1696201099
528,island harbour,50.724,-1.2758,17.31,94,89,0.45,GB,1696201099
529,las terrenas,19.311,-69.5428,28.79,84,100,3.36,DO,1696201099
530,chany,55.3121,76.7647,2.5,59,15,2.08,RU,1696201099
531,sakaraha,-22.9,44.5333,17.99,89,1,1.79,MG,1696201099
532,shingu,33.7333,135.9833,20.85,64,13,2.1,JP,1696201099
533,rathdrum,47.8137,-116.892,19.1,52,75,4.12,US,1696201099
534,urengoy,65.9667,78.3667,0.62,99,100,2.68,RU,1696201099
535,novyy urgal,51.0736,132.5642,6.11,84,100,0.92,RU,1696201100
536,greymouth,-42.4667,171.2,12.28,88,100,9.77,NZ,1696201100
537,la foa,-21.7108,165.8276,23.2,53,41,3.2,NC,1696201100
538,darovskoy,58.77,47.9564,9.78,93,100,3.2,RU,1696201100
539,revda,56.801,59.9303,8.35,77,94,3.56,RU,1696201100
540,nanzhou,29.3596,112.4024,19.07,87,100,4.21,CN,1696201100
541,vallegrande,-18.4897,-64.1069,16.31,64,79,2.09,BO,1696201100
542,garissa,-0.4536,39.6401,24.53,68,6,7.51,KE,1696200861
543,myskhako,44.6714,37.7433,20.88,45,55,2.61,RU,1696201101
544,tamandare,-8.7597,-35.1047,23.49,75,3,2.86,BR,1696201101
545,vila franca do campo,37.7167,-25.4333,20.23,99,74,3.66,PT,1696201101
546,jaru,-10.4389,-62.4664,31.62,45,100,1.68,BR,1696201101
547,redmond,47.674,-122.1215,19.66,64,11,0.89,US,1696200970
548,bocas del toro,9.3333,-82.25,26.23,68,59,2.43,PA,1696201101
549,bikenibeu village,1.3673,173.1241,30.98,70,40,1.54,KI,1696201101
550,saguenay,48.4168,-71.0657,18.06,55,20,3.6,CA,1696200813
551,mirpur sakro,24.5474,67.6277,26.79,45,4,3.86,PK,1696201101
552,macapa,0.0389,-51.0664,29.99,70,20,5.66,BR,1696201101
553,shimoda,34.6667,138.95,21.72,74,69,6.06,JP,1696200878
554,stephenville,32.2207,-98.2023,31.8,33,0,5.66,US,1696201102
555,hithadhoo,-0.6,73.0833,27.62,76,83,5.09,MV,1696200856
556,zaozersk,69.4005,32.4476,3.83,87,93,7.37,RU,1696201102
557,coos bay,43.3665,-124.2179,19.63,82,20,8.23,US,1696201040
558,gobernador roca,-27.1864,-55.4643,19.27,51,0,2.88,AR,1696201102
559,sao felix do xingu,-6.6447,-51.995,29.85,38,22,1.4,BR,1696201102
560,nuuk,64.1835,-51.7216,0.49,86,96,2.09,GL,1696201102
561,rikaze,29.25,88.8833,10.55,57,89,0.6,CN,1696201102
562,buy,58.4786,41.53,8.38,94,12,3.67,RU,1696201102
563,satsumasendai,31.8167,130.3,17.73,66,60,2.99,JP,1696201103
564,rockland,41.1668,-74.0496,23.03,82,0,1.86,US,1696201103
565,juli,-16.2167,-69.45,7.77,76,72,1.05,PE,1696201103
566,monrovia,6.3005,-10.7969,25.87,87,91,2.08,LR,1696201103
567,campos belos,-13.0367,-46.7717,31.31,22,18,1.58,BR,1696201103
568,ishigaki,24.3448,124.1572,27.07,89,75,8.23,JP,1696201103
